{
  "svgs": [
    {
      "id": "eu-commission",
      "name": "EU Commission",
      "lat": 50.843700,
      "lon": 4.382661,
      "svgUrl": "https://theoramond.github.io/map-routes/eu-commission.svg",
      "size": 40,
      "glow": true,
      "glowColor": "#00c8ff",
      "pulse": false
    },
    {
      "id": "frontex",
      "name": "Frontex Mission",
      "lat": 35.49691534756277, 
      "lon": 12.604577315429923,
      "svgUrl": "https://theoramond.github.io/map-routes/frontex.svg",
      "size": 20,
      "glow": false,
      "glowColor": "#00c8ff",
      "pulse": false
    },
    {
      "id": "shield-cross",
      "name": "Shield",
      "lat": 27.970603115981252,
      "lon": -15.46245846010654,
      "svgUrl": "https://theoramond.github.io/map-routes/shield-cross.svg",
      "size": 20,
      "glow": false,
      "glowColor": "#000000",
      "pulse": false
    },
    {
      "id": "shield-cross",
      "name": "Shield",
      "lat": -12.731979425807086,
      "lon": 45.08464261230838,
      "svgUrl": "https://theoramond.github.io/map-routes/shield-cross.svg",
      "size": 20,
      "glow": false,
      "glowColor": "#000000",
      "pulse": false
    },
    {
      "id": "shield-check2",
      "name": "Shield",
      "lat": 62.65540117355901,
      "lon": 31.375622560537636,
      "svgUrl": "https://theoramond.github.io/map-routes/shield-check.svg",
      "size": 20,
      "glow": false,
      "glowColor": "#000000",
      "pulse": false
    },
    {
      "id": "Algeria",
      "name": "Algeria",
      "lat": 28.081248,
      "lon": 3.967334,
      "svgUrl": "https://theoramond.github.io/map-routes/warning-red.svg",
      "size": 30,
      "glow": true,
      "glowColor": "#e20f00",
      "pulse": true
    },
    {
      "id": "Libya",
      "name": "Libya",
      "lat": 28.707986,
      "lon": 15.182874,
      "svgUrl": "https://theoramond.github.io/map-routes/warning-orange.svg",
      "size": 30,
      "glow": true,
      "glowColor": "#f0b100",
      "pulse": false
    }
  ]
}
